stop_id,stop_code,stop_name,stop_lat,stop_lon,location_type
5036,5036,"TXIRRITA KALEA, 8",43.26763983425846,-1.9753331638251515,0
1734,1734,KARABEL BIRIBILGUNEA,43.265770969359416,-1.9687724198823329,0
6,6,ZIKUÑAGA BAILARA,43.2648139722727,-1.9674948206362344,0
9002,9002,EPELE,43.26171037418551,-1.9500147066655629,0
9003,9003,FAGOLLAGA,43.248309113210375,-1.9516984962502721,0
9004,9004,EREÑOZU,43.24287614418439,-1.9405954687618037,0
9005,9005,LATXE,43.23825474179129,-1.9345544377652963,0
9006,9006,PIKOAGA,43.223536403953425,-1.924406208636136,0
4122,4122,PIKOAGA,43.22352716937038,-1.9243817447136593,0
4121,4121,LATXE,43.238191146836485,-1.934493965447245,0
3991,3991,EREÑOZU,43.24288423472419,-1.9404967921613923,0
3990,3990,FAGOLLAGA,43.24832757089949,-1.9517474522713176,0
3989,3989,EPELE,43.261791967226266,-1.9500749086400477,0
5177,5177,URBIETA KALEA,43.26751177401454,-1.9771220056673673,0
1726,1726,"OKENDO KALEA, 10",43.32231625947332,-1.9815431516711899,0
263,263,"URBIETA KALEA, 38",43.31614498393866,-1.9821888360458777,0
552,552,ALDAPETA GALTZADA - LONDAITZ,43.313916100481954,-1.989772856294296,0
265,265,AIETE PASEALEKUA - LA CUMBRE,43.310554165675356,-1.990420421342135,0
564,564,AIETE PASEALEKUA - IZABURU,43.309625348525806,-1.9912866033552463,0
553,553,AIETE PASEALEKUA - MUNTO ALDE,43.30816544926345,-1.992173864634313,0
292,292,"AIETE PASEALEKUA, 66 - MUNTO",43.30706295316855,-1.9927469321885596,0
268,268,AIETEKO JAUREGIA I,43.30428521379824,-1.9922503035170307,0
269,269,AIETE PASEALEKUA - ETXADI,43.30241752696295,-1.990801667277097,0
270,270,"ORIAMENDI PASEALEKUA, 20",43.298857074268376,-1.9914030096993496,0
271,271,ORIAMENDI PASEALEKUA - PAKEA,43.294756861894655,-1.99206250430933,0
272,272,"ORIAMENDI PASEALEKUA, 86",43.29094427685017,-1.990621608868104,0
273,273,"ORIAMENDI PASEALEKUA, 112",43.287027907218736,-1.9876295359005345,0
274,274,ORIAMENDI PASEALEKUA - GOIAZTXIKI,43.28509665327375,-1.9871438916926898,0
275,275,"ORIAMENDI PASEALEKUA, 164 - BENTATXIKI",43.28307441285856,-1.9896055026898194,0
276,276,"JAUREGI BAILARA, 78",43.27749636303169,-1.9870851160900398,0
277,277,SORGINTXULO AUZOA,43.272299921385546,-1.9839426857253646,0
278,278,"MARIELUTS AUZOA, 6",43.27030730624491,-1.980611769602188,0
2501,2501,"ANTZIOLA AUZOA, 17",43.27150321320363,-1.9763897228517564,0
2516,2516,ARGARAIN ANTZIOLA 2,43.26961185100416,-1.9753370469472467,0
5178,5178,"TXANTXILLA AUZOA, 7",43.2651575991982,-1.9786892999168306,0
282,282,"KAROBIETA AUZOA, 33",43.267846810668736,-1.9813675168117086,0
283,283,"MARIELUTS AUZOA, 48 - ERREPIDEA",43.27057221691833,-1.9830595539032763,0
284,284,"GALARRETA AUZOA, 1",43.27755862116419,-1.9869978148883232,0
285,285,BENTATXIKI,43.28375494977266,-1.9891751783503964,0
286,286,ORIAMENDI PASEALEKUA - GOIAZTXIKI,43.285175389386566,-1.9868837477968107,0
287,287,ORIAMENDI PASEALEKUA - INTXAURDEGI,43.28719203607592,-1.9878610076639756,0
288,288,ORIAMENDI PASEALEKUA - KATXOLA,43.29128791878361,-1.9907885008652058,0
289,289,ORIAMENDI PASEALEKUA - PAKEA,43.29484635011794,-1.9919993884244773,0
290,290,"ORIAMENDI PASEALEKUA, 11",43.29956647313685,-1.9911816979365342,0
291,291,"AIETE PASEALEKUA, 93",43.30201779938715,-1.9904014229621005,0
1729,1729,AIETEKO JAUREGIA II,43.30435713014786,-1.9922367859730348,0
293,293,"AIETE PASEALEKUA, 53 - MUNTO",43.307277725011176,-1.9925954247752653,0
563,563,"AIETE PASEALEKUA, 017 - IZA",43.30998340666592,-1.9910463998079004,0
295,295,"AIETE PASEALEKUA, 3 - LA CUMBRE",43.31084538923987,-1.9897497382525342,0
296,296,ALDAPETA GALTZADA - MARIANISTAK,43.31446885221917,-1.9871124236069693,0
3750,3750,"EASO KALEA, 9",43.31753219662991,-1.9842744743113945,0
322,322,GOIKO PLAZA - SAN MARTIN ELIZA,43.2199540485036,-2.020814022300965,0
323,323,AMA KANDIDA HIRIBIDEA,43.22315712652107,-2.0226220320341097,0
1720,1720,AMA KANDIDA HIRIBIDEA - KALETXIKI,43.221994513596265,-2.017247573138821,0
326,326,"GUDARIEN HIRIBIDEA, 2 - MARTIN UGALDE PARKEA",43.222936899883514,-2.014794450580196,0
327,327,"GUDARIEN HIRIBIDEA, 47 PAREAN",43.22679890195556,-2.0073932084509276,0
328,328,"GUDARIEN HIRIBIDEA, 57 PAREAN",43.22924612215206,-2.004053256049536,0
329,329,ERGOIEN AUZOA - XOXOKA,43.236072509707085,-1.999003485156377,0
330,330,"ERGOIEN AUZOA, 18  -  ERRATZU INDUSTRIALGUNEA",43.23803192657583,-1.9975673736772306,0
332,332,"SAN JOSE OBRERO,6.COLEGIO SALESIANOS (URNIETA)",43.24155942866721,-1.9952555619125694,0
334,334,IDIAZABAL KALEA - ERDIGUNEA,43.247283013076,-1.9928333903080526,0
335,335,"IDIAZABAL KALEA, 3 - ANBULATEGIA",43.24970053005602,-1.9912783852630642,0
336,336,OZTARAN AUZOA - LANGARDA,43.25561092093696,-1.9865732821008872,0
337,337,SANTA BARBARA BAILARA - HILERRIA,43.26185026836962,-1.9793975991735326,0
4102,4102,IZPIZUA KALEA - ARATZ IKASTETXEA,43.265060104533845,-1.9788634314046127,0
280,280,ELKANO KALEA - ATSEGINDEGI PLAZA,43.267013185308585,-1.9767483756016815,0
338,338,GALARRETA - FRONTOIA,43.27734215990623,-1.9879750029918704,0
339,339,"JAUREGI BAILARA, 67 - LORETOKI",43.27808703277386,-1.994839539330683,0
4872,4872,"JAUREGI BAILARA, 66 - CHILLIDA LEKU",43.277297423282704,-1.9992645315955098,0
340,340,GASOLINERA ERREKALDE,43.27780993940718,-2.0012403129746397,0
341,341,"AVDA. ERREKALDE,21 (DONOSTIA)",43.278668953304646,-2.00475100605656,0
342,342,"AÑORGA HIRIBIDEA, 59 - AÑORGA II",43.285715501437,-1.9991388579819018,0
343,343,AÑORGA HIRIBIDEA - AÑORGA TXIKI II,43.28948506717431,-1.9977334593098715,0
202,202,TOLOSA HIRIBIDEA - AMERIKA PLAZA,43.302278275927534,-2.0036754998067003,0
377,377,TOLOSA HIRIBIDEA - LOREA,43.30502082378884,-2.006343219664006,0
203,203,"TOLOSA HIRIBIDEA, 77 - UNIBERTSITATEAK",43.30718187223431,-2.008416452806431,0
4038,4038,"TOLOSA HIRIBIDEA, 13 - MAGISTERITZA",43.31227500195036,-2.0069895569693665,0
494,494,AVDA. ZUMALAKARREGI FRENTE HOTEL CODINA (DONOSTIA),43.31351475647856,-2.0045894236356148,0
380,380,"ZUMALAKARREGI HIRIBIDEA, 11 - ESKLABAK",43.314930971429334,-2.001779361710048,0
348,348,"SAN MARTIN KALEA, 57",43.31551353831907,-1.9871320656913338,0
297,297,MIRAKONTXA PASEALEKUA-LA PERLA,43.315255121962736,-1.9884558470953095,0
298,298,"ZUMALAKARREGI HIRIBIDEA, 4",43.31510095467928,-2.001653262615529,0
299,299,"AVDA. ZUMALAKARREGI,24 (DONOSTIA)",43.313401685224775,-2.00504752746889,0
346,346,TOLOSA HIRIBIDEA - MAGISTERITZA,43.31129511264319,-2.0092497316713365,0
421,421,"TOLOSA HIRIBIDEA, 70- UNIBERTSITATEA",43.3070494965334,-2.0087268552480144,0
205,205,TOLOSA HIRIBIDEA 138,43.302237983898316,-2.0042186357836123,0
301,301,"CAMINO DE ZUBIBERRI, CASA ORAMIL (DONOSTIA)",43.298894935511406,-2.0008459126188383,0
302,302,AÑORGA HIRIBIDEA - AÑORGA TXIKI I,43.289462268775196,-1.998214565680736,0
303,303,"AÑORGA HIRIBIDEA, 36 - AÑORGA I",43.285300544586065,-2.000082408956055,0
304,304,"ERREKALDE HIRIBIDEA, 21",43.278650732458985,-2.0047266545081777,0
305,305,CHILLIDA LEKU - HERNANIRUNTZ,43.2773004415363,-1.9996095542775052,0
306,306,"JAUREGI BAILARA, 75",43.277826922349185,-1.9918860349389274,0
307,307,GALARRETA - PARKE TEKNOLOGIKOA,43.27697156097649,-1.9867980475984144,0
308,308,"SANTA BARBARA BAILARA, 30",43.26180613193989,-1.9794969035085621,0
309,309,OZTARAN AUZOA,43.25533771367427,-1.9872430700266437,0
310,310,"IDIAZABAL KALEA, 12 - ANBULATEGIA",43.25003093272438,-1.9909649695387464,0
311,311,"IDIAZABAL KALEA, 42 - ERDIGUNEA",43.247265440423995,-1.992882951643583,0
1722,1722,"IDIAZABAL KALEA, 56 - ZELAIALDEA",43.245333977115465,-1.9933951591151813,0
1721,1721,SALESIANOS,43.242448259826276,-1.9949576634824593,0
316,316,ERGOIEN AUZOA - ERRATZU INDUSTRIALGUNEA,43.23809473342184,-1.9975417117704748,0
317,317,"ERGOIEN AUZOA, 20 - XOXOKA",43.23612674471168,-1.9990272287187698,0
318,318,"GUDARIEN HIRIBIDEA, 57",43.229810004303495,-2.003662326458775,0
4124,4124,"GUDARIEN HIRIBIDEA, 47",43.2263652162836,-2.0082622077547314,0
319,319,"GUDARIEN ETOR BIDEA, 35",43.22296348566985,-2.0147447702101666,0
325,325,"AMA KANDIDA HIRIBIDEA, 23 - KALETXIKI",43.222199564519975,-2.0180569307076768,0
321,321,"AMA KANDIDA HIRIBIDEA, 11",43.22315512762473,-2.022388115164575,0
1725,1725,"MIKELETEGI PASEALEKUA, 12",43.28806817119829,-1.9820778285104765,0
349,349,MIRAMON PASEALEKUA -POLIKLINIKA II,43.290551270923764,-1.9798176121033721,0
1781,1781,"BEGIRISTAIN DOKTOREA, 121 - ONKOLOGIKOA",43.29165665127942,-1.9735370691533445,0
350,350,"BEGIRISTAIN DOKTOREA, 115 - OSPITALEA",43.29288894363797,-1.970385246458631,0
351,351,BEGIRISTAIN DOKTOREA - OSPITALEA II,43.29307834114721,-1.970419032491332,0
3940,3940,"BEGIRISTAIN DOKTOREA, 218 - ONKOLOGIKOA",43.29142031278497,-1.9742929821532536,0
3943,3943,MIRAMON PASEALEKUA - POLIKLINIKA I,43.29058970160965,-1.9800881567573823,0
3944,3944,MIKELETEGI - MIRAMON,43.28808617743621,-1.98207752821138,0
