stop_id,stop_code,stop_name,stop_lat,stop_lon,zone_id,location_type
4056,,Fermin Calbetón,43.339347663823816,-1.7889074092422745,9,0
100,,Colon-zabaltza,43.34010698708233,-1.7925933105238414,9,0
1287,,Colon 52-topo,43.34080278574313,-1.7962435485932609,9,0
4178,,Hondarribia Kalea,43.34248958616137,-1.7990971071288417,9,0
102,,Mendelu Kalea 17,43.34714876868011,-1.8011890863975883,9,0
1288,,N-638 - Amute,43.35119645809997,-1.7982097663410808,9,0
57,,Aeropuerto San Sebastian,43.35673940848777,-1.7944353759924105,9,0
52,,Sabin Arana Kalea 3,43.361734636054756,-1.789967728979747,9,0
7195,,Matxin Arzu-itsas Etxea,43.367304895392934,-1.793053613408263,9,0
104,,Itsasargi K. 20 - La Muela,43.371253161562905,-1.7934690287356359,9,0
4047,,Foru Kalea-arroka,43.3747899499956,-1.7967070091385682,9,0
1294,,Ramón Iribarren 15- Iterlimen,43.38032517320179,-1.7981900123937549,9,0
1292,,Ramon Iribarren Pas. - Lurgorri,43.38367978280345,-1.7960990758938418,9,0
654,,Gipuzkoa Plaza 11,43.32104748620295,-1.9816383445680348,1,0
24,,Mirakruz K. 26,43.32221825513564,-1.9736022860926992,1,0
108,,Jai Alai,43.32206370193461,-1.9664393885236353,1,0
4050,,Jose Elosegi 2 - Ategorrieta,43.32170996112625,-1.9592059308115368,1,0
27,,Mirakruz Gaina,43.321276108838795,-1.948200073349171,1,0
651,,Jose Elosegi 111,43.32051085946552,-1.9433295162440007,1,0
28,,Jose Elosegi 134 - Herrera,43.319950411172925,-1.9382335287732313,1,0
111,,Oleta / Escalerillas,43.32125188909426,-1.9310207970405555,1,0
4014,,Buenavista,43.320777831403404,-1.9217671950423516,1,0
30,,Nafarroa Hiribidea 5,43.319354328202046,-1.9188202412883217,1,0
208,,Nafarroa Hiribidea 24,43.31813372466696,-1.9154381885716125,1,0
179,,Sorgintxulo 11,43.316331712263406,-1.9096372661918823,1,0
180,,Kristobal Gamon Ikastetxea,43.31761994989249,-1.9078137374189772,1,0
181,,Alaberga.telefonica,43.31520447525814,-1.9075733755183988,1,0
182,,Beraungo Anbulategia,43.31414276783825,-1.9104902817806633,1,0
1715,,Galtzaraborda Etorb. 61,43.31168715885521,-1.9126550737721215,1,0
1716,,Galtzaraborda Etorb. - Koldo Mitxelena,43.310952595274316,-1.9083277348253151,1,0
126,,Iparralde Etorbidea-eliza,43.30010931519302,-1.8601320847289469,1,0
130,,Arraskularre,43.29669413401504,-1.858075491035952,1,0
131,,Altzibar,43.29345365657221,-1.8572855534427741,1,0
132,,Peñene,43.29262275195655,-1.8597418716432235,1,0
133,,Iturriotz,43.2931777102426,-1.8657471649933592,1,0
134,,Ibarre,43.29626797136786,-1.8722974242078718,1,0
135,,Ugaldetxo,43.299051754715016,-1.8770170496237228,1,0
4105,,Astigarragako Bidea 3,43.299527935016386,-1.8805835399207698,1,0
136,,Mamut Merk.gunea,43.30117741889679,-1.8816751944623609,1,0
137,,Arragua,43.30894180808331,-1.8819397368032305,1,0
4166,,Nafarroa Hiribidea 2,43.31080690553055,-1.8848279314429917,1,0
80,,Nafarroa Hiribidea,43.31073841601165,-1.8907479365651865,1,0
79,,Gamon Zumardia,43.31279749947261,-1.8969623771249196,1,0
138,,Diputazio Pl.,43.31495943401207,-1.9026697915164075,1,0
139,,"Kaputxinoak, Biribilgunea",43.317663075256846,-1.9123388607194747,1,0
78,,Renfe,43.31898254931637,-1.9175935931880457,1,0
648,,Buenavista,43.320913107314084,-1.9217894681299996,1,0
140,,Oleta / Escalerillas,43.321373766723305,-1.9315366416386084,1,0
649,,Herrera,43.31992115123745,-1.9389616620425076,1,0
650,,Gaiztarro,43.3207190667137,-1.9434492352105561,1,0
174,,Mirakruz Gaina,43.321401593247074,-1.9500971760781967,1,0
177,,Ategorrieta 65,43.32196159516142,-1.9621245612510176,1,0
95,,Nafarroa Hirib. 31,43.32328757569839,-1.9673559686003956,1,0
142,,Nafarroa Hirib. 7 - Okendo Kultur Etxea,43.32549299300779,-1.9702787049624866,1,0
96,,Zurriola - Kursaal,43.32471415035419,-1.976803993598501,1,0
653,,Gipuzkoa Plaza 10,43.32129199627484,-1.981794587845425,1,0
5012,,Txingudi Merk. Gunea,43.32039853230428,-1.8362220550805524,9,0
5970,,Araso Biribilgunea,43.32319135662581,-1.8337144229180486,9,0
5976,,Andrearriaga 14,43.328502564770666,-1.8195393408953742,9,0
45,,Elizatxo Hiribidea 60,43.330985400593676,-1.81408860027299,9,0
5977,,Elizatxo Hiribidea-piketazaharra,43.33196751369219,-1.8072235570781092,9,0
5974,,Gobaragin Kalea-lavanderas,43.33375412779399,-1.8075833176469625,9,0
5980,,Monte Aldabe 49,43.33829739696593,-1.8106648293852685,9,0
214,,Puiana,43.340486231237925,-1.8124726091214414,9,0
4071,,Bidasoa Ospitalea,43.3416734031618,-1.814941536470777,9,0
7072,,Aristegi Enbajadorea,43.339686834680144,-1.8117973431417338,9,0
4728,,Letxunborro Hirib. - Gibanaka,43.343673973310295,-1.8055755566138925,9,0
50,,Kaputxinoak,43.35283859086231,-1.7976714497363857,9,0
1290,,Kosta Kalea 3dir. Hondarribia,43.358116930108196,-1.7969872234505428,9,0
5864,,Minasoroeta Kalea 17,43.3611418822666,-1.7935213543490416,9,0
53,,Sabin Arana - Ama Guadalupekoa Ikastetxea,43.365568484506944,-1.792335194748118,9,0
1296,,Ramon Iribarren Pas 15 - Iterlimen,43.38072296558637,-1.7983426375410934,9,0
4054,,Foru Kalea- Arroka,43.37466534458717,-1.7968452535453134,9,0
1297,,Foru Kalea 3,43.372089193510035,-1.794193041302936,9,0
54,,Itsasargi 3,43.36938313318543,-1.7937406118130443,9,0
55,,Bernat Etxepare Kalea - Correos,43.36598715590715,-1.7927588543336073,9,0
56,,Sabin Arana Kalea,43.361888591000096,-1.7900510562569336,9,0
4058,,Minasoroeta-zumardia,43.36135209413691,-1.7921103188002776,9,0
4730,,Santa Engrazia 8,43.360431806582014,-1.7953495204220458,9,0
4137,,Kosta Kalea 17,43.35577779994742,-1.7980329666235397,9,0
4060,,Kosta Kalea 49,43.35296812687906,-1.7980020521829405,9,0
105,,Mendelu Kalea 2,43.34724073301742,-1.801372347815383,9,0
91,,Hondarribia K. 25 - Gurutze Gorria,43.34327992379678,-1.7997600776593217,9,0
106,,Zubiaurre Kalea 5,43.34175947889074,-1.7990251411444105,9,0
1483,,Colon Pas. 43,43.34079612006727,-1.7964657426126627,9,0
90,,Gipuzkoa Hirib. 6,43.339759355191596,-1.79463573656336,9,0
6156,,Euskal Herria Etorbidea Dir. Larreaundi,43.33412188879558,-1.7937110816495712,9,0
345,,Larreaundi,43.3334470173643,-1.7894934318087545,9,0
7074,,Urdanibia Plaza,43.33706619044373,-1.7860414551961334,9,0
31,,Kaputxinoak,43.317445684931535,-1.9112575141052248,1,0
216,,Nafarroa Hirib. 75,43.31482332657109,-1.9025612567844887,1,0
34,,Gamon Zumardia,43.3125788151596,-1.8966950482658063,1,0
37,,Nafarroa Hiribidea,43.31050846873573,-1.8893217590550975,1,0
112,,Lartzabal,43.31043117707392,-1.8841566149150146,1,0
38,,Lintzirin Pol,43.31446931238539,-1.8753890245763996,1,0
83,,Lanbarren Pol.,43.319598934212834,-1.8677962325100126,1,0
42,,Gaintxurizketa Gaina,43.330104410858155,-1.848593394470022,9,0
43,,Letxumborro 59,43.33003435883044,-1.8231360498424896,9,0
4072,,Aldabe Mendia K.13,43.33963041113059,-1.8107004895021597,9,0
4068,,Zubieta 16 - Gibeleta,43.3442262000623,-1.804997203601022,9,0
4725,,Madalengain,43.36808032758142,-1.7957165206118557,9,0
4729,,Sokoa,43.37183715658712,-1.7967653976258329,9,0
58,,N-638 - Amute,43.351325085194475,-1.798454006526927,9,0
89,,Elizatxo Hirib. 14 - La Salle,43.335294790554826,-1.799066218402816,9,0
5978,,Elizatxo Hiribidea 36 - Oinaurre,43.33272396631652,-1.8055064981458133,9,0
5973,,Elizatxo Hiribidea 54,43.33148327744111,-1.8100083902386641,9,0
86,,Elizatxo Hiribidea 62- Bentak,43.33087380760534,-1.8154846031628442,9,0
85,,Letxunborro 59 - Suhiltzaileak,43.33019006738046,-1.8233920707323736,9,0
84,,Gaintxurizketa Gaina,43.32997947376747,-1.8504952861306996,1,0
39,,Lanbarren Pol.,43.32064541546394,-1.867086164825894,1,0
82,,Gi-636 - Lintzirin,43.31348793391905,-1.8772321542935912,1,0
349,,Miramon Pasealekua -poliklinika Ii,43.290263061502344,-1.9798101031551159,1,0
1781,,Begiristain Doktorea 121 - Onkologikoa,43.29165665127942,-1.9735370691533445,1,0
350,,Begiristain Doktorea 115 - Ospitalea,43.29279068643096,-1.9704731941354727,1,0
714,,Zorroaga 39 - Illunbe,43.30091735707823,-1.9679935986557202,1,0
258,,Toribio Altzaga Kalea - Arcco,43.305010872254144,-1.9736082899697334,1,0
736,,Barcelona Hiribidea 28,43.311126453501,-1.9717790544741125,1,0
7250,,Molinao,43.315593856826716,-1.9163219228266242,1,0
824,,Kiroldegia,43.31894070449119,-1.8999960022174613,1,0
147,,Jaizkibel Etorb. - Ijurko,43.3214462759185,-1.897434880990662,1,0
4104,,San Roque,43.3242508827349,-1.9148236849867277,1,0
817,,Juan Xxiii - Frontoia,43.32360232520211,-1.914798230525038,1,0
5275,,Sabin Arana Goiri 8 Parean,43.36463863505876,-1.7912552386309721,9,0
202,,Tolosa Hiribidea - Amerika Plaza,43.302350838099585,-2.0037359600743474,1,0
377,,Tolosa Hiribidea - Lorea,43.30502082378884,-2.006343219664006,1,0
203,,Tolosa Hiribidea 77 - Unibertsitateak,43.30718187223431,-2.008416452806431,1,0
4038,,Tolosa Hiribidea 13 - Magisteritza,43.31227500195036,-2.0069895569693665,1,0
380,,Zumalakarregi Hiribidea 11 - Esklabak,43.31480621889056,-2.0019293829303835,1,0
51,,Aeropuerto San Sebastian,43.35696045842023,-1.793196992108246,9,0
5674,,"Jaitzubia - Bidasoa Ospitalea, Donostirantz",43.34431012811623,-1.8165311295737079,9,0
1727,,Okendo Kalea 16,43.32182581037861,-1.9810703581497706,1,0
4051,,Alto De Miracruz,43.321237615080875,-1.9498903411907278,1,0
159,,Jose Elosegi 102 - Contadores,43.321173985999444,-1.9449336272404842,1,0
160,,Bidebieta,43.32191014705297,-1.9398273543344917,1,0
162,,Euskadi Etorbidea 3,43.32234308506657,-1.9369955464786286,1,0
163,,Euskadi Etorbidea-azoka,43.322823647331944,-1.9334845403102092,1,0
164,,Gudarien Plaza,43.32306229152868,-1.9301133909340107,1,0
1708,,Esnabide Kalea 6,43.32487967466387,-1.9261100721849913,1,0
4302,,Elizatxo 11,43.33629241732336,-1.7963203251367104,9,0
47,,Luis Mariano,43.33943565644992,-1.7946791505139874,9,0
1717,,Plaza Urbia 1,43.31152145177303,-1.9056664088017174,1,0
1718,,Morrongilleta 22,43.311771361042965,-1.902616180154836,1,0
185,,Pontika,43.30932564085167,-1.903917893477862,1,0
16,,Beraun Kalea 15,43.30933466712799,-1.9086279653089748,1,0
833,,Avda. Galtzaraborda 53,43.311318014070594,-1.9117121794583845,1,0
189,,Galtzaraborda Anbulategia,43.31352148945813,-1.9114385610486944,1,0
191,,Alaberga - Telefónica,43.3149103247283,-1.9078869349256153,1,0
192,,Versalles Dorrea,43.317731516141365,-1.9081817035534758,1,0
193,,Sorgintxulo 11,43.31637590368605,-1.9095501527798082,1,0
818,,Lezo Bidea - Meipi,43.32270503231315,-1.9122859057172892,1,0
151,,Lezo Erdia,43.32154082056549,-1.8979018221360189,1,0
819,,Kiroldegia,43.31899377265699,-1.8998963854884998,1,0
2126,,"Jaitzubia - Bidasoa Ospitalea, Hondarribirantz",43.34409432270597,-1.81655999732958,9,0
169,,Gudarien Plaza,43.32317413265061,-1.9305184256701249,1,0
170,,Euskadi Etorbidea 25,43.3229303023863,-1.933334675808091,1,0
171,,Euskadi Etorbidea 1,43.32243879293416,-1.9366362172875449,1,0
172,,Bidebieta,43.3220553372057,-1.9399481597652126,1,0
173,,Jose Elosegi 283- Contadores,43.321382646584695,-1.9451026767127055,1,0
846,,Colon Pasealekua 13 - Gros,43.323023893847775,-1.9770913622213693,1,0
4106,,Aristegi,43.299592522938504,-1.8807426250835482,1,0
116,,Ugaldetxo,43.29850214290552,-1.8760655616795652,1,0
4107,,Rafael Pikabea 37,43.29888912331014,-1.8714722920067102,1,0
4108,,Rotonda Karaez Kalea 20,43.29921354003338,-1.867854069969233,1,0
4109,,Rafael Pikabea 25,43.29922746317406,-1.8638100957879435,1,0
298,,Zumalakarregi Hiribidea 4,43.31510095467928,-2.001653262615529,1,0
355,,Tolosa Hiribidea - Zubimusu Parkea,43.31286160574794,-2.006104490421188,1,0
346,,Tolosa Hiribidea - Magisteritza,43.31129511264319,-2.0092497316713365,1,0
421,,Tolosa Hiribidea 70- Unibertsitatea,43.3070494965334,-2.0087268552480144,1,0
356,,Tolosa Hiribidea 112,43.30490785174174,-2.006813584129013,1,0
205,,Tolosa Hiribidea 138,43.302237983898316,-2.0042186357836123,1,0
113,,Arragua,43.308790809279934,-1.8821521206693885,1,0
114,,Talaia,43.30427576754903,-1.8836034308488194,1,0
115,,Mamut Merk.gunea,43.30210172997181,-1.8822746995793558,1,0
7000,,R.arrillaga 6,43.32419412034291,-1.9298221897914014,1,0
7001,,Gran Sol 3,43.32493154593781,-1.9306849300435343,1,0
7002,,Borda-enea 2,43.32581865551468,-1.932149423284359,1,0
7003,,Oiartzun 8,43.32471840050098,-1.9338953984021112,1,0
7004,,Ulia 22,43.32557243779016,-1.9376175869539038,1,0
7005,,Azkuene 35,43.3257330454525,-1.9384288172540844,1,0
7006,,Azkuene Pza.,43.32448422826438,-1.9377598881168951,1,0
630,,Kasares Pas. - Darieta,43.320196196260845,-1.9259829178257657,1,0
631,,Kasares Pas. - Oleta,43.31977022688139,-1.929529869992723,1,0
632,,Altza Pas. - Sta. Barbara,43.317535075789415,-1.9302720436972767,1,0
633,,Larratxo Pas.- Nerecan,43.316634229220924,-1.9340860853592514,1,0
7013,,Txapinene Kalea 11- San Martzial,43.31410034032296,-1.9346606299217803,1,0
7011,,Lau Haizeta Kalea - Martillun,43.312906226780726,-1.9360009278434276,1,0
827,,Leosiñeta Kalea - Bianka,43.31356136730897,-1.937703550099906,1,0
4112,,Garbera Merk.gunea,43.30822829542504,-1.9481538431703722,1,0
1702,,Donostia Ibilbidea 38 - Hezegunea,43.28312625806467,-1.9493875997883845,1,0
4479,,Donostia Ibilbidea- Industrialgunea,43.28043914627109,-1.9509374469217473,1,0
4726,,Baserritar Etorb. 64 -talaia,43.37122742592755,-1.7995793063301877,9,0
5971,,Araso Dentro Del Polígono,43.324758655669996,-1.835534469092656,9,0
4795,,Urbieta 50,43.31466837073304,-1.9811899640432251,1,0
217,,Mendeurrenaren Plaza - Centenario,43.312670450057134,-1.9802985067337924,1,0
198,,Antso Jakitunaren Hiribidea 26,43.30880351193278,-1.9798452843101344,1,0
218,,Aita Donostia Plaza - Anoeta,43.302991763403746,-1.9753806780529006,1,0
3940,,Begiristain Doktorea 218 - Onkologikoa,43.29155347991601,-1.974081187074012,1,0
5979,,Monte Aldabe 4,43.33837185407271,-1.810897765750475,9,0
5975,,Gobaragin Kalea 2,43.33378267838252,-1.8077307834843932,9,0
4070,,Letxunborro Puiana Biribilgunea,43.33982613239457,-1.8113381720623496,9,0
1701,,Donostia Ibilbidea - Lekueder,43.280462650958476,-1.9505549794357195,1,0
4478,,Donostia Ibilbidea - Pelotari Biribilgunea,43.283027224691345,-1.9493893041704367,1,0
7012,,Lau Haizeta Kalea - Martillun,43.313012885616985,-1.9358510923964767,1,0
7014,,Txapinene Kalea 17- San Martzial,43.314143287512614,-1.9344379137799692,1,0
641,,Larratxo Pas. - Nerecan,43.31652355053938,-1.9338043861015064,1,0
642,,Altza Pas. - Sta. Barbara,43.317568665248956,-1.9300124797165852,1,0
646,,Kasares Pas. - Oleta,43.31974298729385,-1.9295056831356197,1,0
647,,Kasares Pas. - Darieta,43.320365977621385,-1.9258442672305847,1,0
152,,Altamira,43.317618595246316,-1.9020299922956254,1,0
4300,,Caserio Mendin,43.30346249600064,-1.8741247835365296,1,0
7015,,Pikabene 2,43.300512148004,-1.8653272530256155,1,0
1477,,Paseo Colon,43.34015028748199,-1.7932833054912314,9,0
